,24,20,28,296,19,22,17,112,25,25,12,074,31*75
$GPGSV,3,3,12,12,08,038,28,17,08,327,,23,06,245,19,19,01,220,*7D
$GPRMC,235011.028,A,4738.9990,N,12207.0555,W,000.0,181.1,251213,,,A*7F
$GPVTG,181.1,T,,M,000.0,N,000.0,K,A*04
$GPGGA,235012.028,4738.9990,N,12207.0555,W,1,09,1.1,36.4,M,-18.1,M,,0000*5C
$GPGSA,A,3,20,25,31,11,01,14,22,12,32,,,,2.0,1.1,1.6*36
$GPGSV,3,1,12,32,66,301,43,01,54,276,39,31,53,139,39,14,42,059,45*7E
$GPGSV,3,2,12,11,41,237,24,20,28,296,19,22,17,112,25,25,12,074,31*75
$GPGSV,3,3,12,12,08,038,28,17,08,327,,23,06,245,19,19,01,220,*7D
$GPRMC,235012.028,A,4738.9990,N,12207.0555,W,000.0,181.1,251213,,,A*7C
$GPVTG,181.1,T,,M,000.0,N,000.0,K,A*04
$GPGGA,235013.028,4738.9990,N,12207.0555,W,1,09,1.1,36.4,M,-18.1,M,,0000*5D
$GPGSA,A,3,20,25,31,11,01,14,22,12,32,,,,2.0,1.1,1.6*36
$GPGSV,3,1,12,32,66,301,43,01,54,276,38,31,53,139,38,14,42,059,45*7E
$GPGSV,3,2,12,11,41,237,24,20,28,296,19,22,17,112,26,25,12,074,31*76
$GPGSV,3,3,12,12,08,038,28,17,08,327,,23,06,245,19,19,01,220,*7D
$GPRMC,235013.028,A,4738.9990,N,12207.0555,W,000.0,181.1,251213,,,A*7D
$GPVTG,181.1,T,,M,000.0,N,000.0,K,A*04
$GPGGA,235014.028,4738.9990,N,12207.0555,W,1,09,1.1,36.4,M,-18.1,M,,0000*5A
$GPGSA,A,3,20,25,31,11,01,14,22,12,32,,,,2.0,1.1,1.6*36
$GPGSV,3,1,12,32,66,301,43,01,54,276,39,31,53,139,38,14,42,059,45*7F
$GPGSV,3,2,12,11,41,237,24,20,28,296,19,22,17,112,25,25,12,074,31*75
$GPGSV,3,3,12,12,08,038,28,17,08,327,,23,06,245,18,19,01,220,*7C
$GPRMC,235014.028,A,4738.9990,N,12207.0555,W,000.0,181.1,251213,,,A*7A
$GPVTG,181.1,T,,M,000.0,N,000.0,K,A*04
$GPGGA,235015.028,4738.9990,N,12207.0555,W,1,09,1.1,36.4,M,-18.1,M,,0000*5B
$GPGSA,A,3,20,25,31,11,01,14,22,12,32,,,,2.0,1.1,1.6*36
$GPGSV,3,1,12,32,66,301,42,01,54,276,39,31,53,139,38,14,42,059,46*7D
$GPGSV,3,2,12,11,41,237,24,20,28,296,19,22,17,112,26,25,12,074,31*76
$GPGSV,3,3,12,17,08,327,00,12,08,038,27,23,06,245,18,19,01,220,*73
$GPRMC,235015.028,A,4738.9990,N,12207.0555,W,000.0,181.1,251213,,,A*7B
$GPVTG,181.1,T,,M,000.0,N,000.0,K,A*04
$GPGGA,235016.028,4738.9990,N,12207.0555,W,1,09,1.1,36.4,M,-18.1,M,,0000*58
$GPGSA,A,3,20,25,31,11,01,14,22,12,32,,,,2.0,1.1,1.6*36
$GPGSV,3,1,12,32,66,301,42,01,54,276,39,31,53,139,38,14,42,059,46*7D
$GPGSV,3,2,12,11,41,237,24,20,28,296,19,22,17,112,25,25,12,074,31*75
$GPGSV,3,3,12,17,08,327,00,12,08,038,28,23,06,245,18,19,01,220,*7C
$GPRMC,235016.028,A,4738.9990,N,12207.0555,W,000.0,181.1,251213,,,A*78
$GPVTG,181.1,T,,M,000.0,N,000.0,K,A*04
$GPGGA,235017.028,4738.9990,N,12207.0555,W,1,09,1.1,36.4,M,-18.1,M,,0000*59
$GPGSA,A,3,20,25,31,11,01,14,22,12,32,,,,2.0,1.1,1.6*36
$GPGSV,3,1,12,32,66,301,42,01,54,276,39,31,53,139,38,14,42,059,45*7E
$GPGSV,3,2,12,11,41,237,24,20,28,296,18,22,17,112,25,25,12,074,32*77
$GPGSV,3,3,12,12,08,038,28,17,08,327,,23,06,245,18,19,01,220,*7C
$GPRMC,235017.028,A,4738.9990,N,12207.0555,W,000.0,181.1,251213,,,A*79
$GPVTG,181.1,T,,M,000.0,N,000.0,K,A*04
$GPGGA,235018.028,4738.9990,N,12207.0555,W,1,09,1.1,36.4,M,-18.1,M,,0000*56
$GPGSA,A,3,20,25,31,11,01,14,22,12,32,,,,2.0,1.1,1.6*36
$GPGSV,3,1,12,32,66,301,42,01,54,276,39,31,53,139,37,14,42,059,46*72
$GPGSV,3,2,12,11,41,237,24,20,28,296,18,22,17,112,25,25,12,074,32*77
$GPGSV,3,3,12,12,08,038,27,17,08,327,,23,06,245,17,19,01,220,*7C
$GPRMC,235018.028,A,4738.9990,N,12207.0555,W,000.0,181.1,251213,,,A*76
$GPVTG,181.1,T,,M,000.0,N,000.0,K,A*04
$GPGGA,235019.028,4738.9990,N,12207.0555,W,1,08,1.2,36.4,M,-18.1,M,,0000*55
$GPGSA,A,3,25,31,11,01,14,22,12,32,,,,,2.2,1.2,1.8*3B
$GPGSV,3,1,12,32,66,301,42,01,54,276,39,31,53,139,37,14,42,059,46*72
$GPGSV,3,2,12,11,41,237,24,20,28,296,17,22,17,112,25,25,12,074,32*78
$GPGSV,3,3,12,12,08,038,27,17,08,327,,23,06,245,17,19,01,220,*7C
$GPRMC,235019.028,A,4738.9990,N,12207.0555,W,000.0,181.1,251213,,,A*77
$GPVTG,181.1,T,,M,000.0,N,000.0,K,A*04
$GPGGA,235020.028,4738.9990,N,12207.0555,W,1,09,1.1,36.4,M,-18.1,M,,0000*5D
$GPGSA,A,3,20,25,31,11,01,14,22,12,32,,,,2.0,1.1,1.6*36
$GPGSV,3,1,12,32,66,301,42,01,54,276,39,31,53,139,37,14,42,059,46*72
$GPGSV,3,2,12,11,41,237,23,20,28,296,17,22,17,112,25,25,12,074,32*7F
$GPGSV,3,3,12,12,08,038,27,17,08,327,,23,06,245,15,19,01,220,*7E
$GPRMC,235020.028,A,4738.9990,N,12207.0555,W,000.0,181.1,251213,,,A*7D
$GPVTG,181.1,T,,M,000.0,N,000.0,K,A*04
$GPGGA,235021.028,4738.9990,N,12207.0555,W,1,08,1.2,36.4,M,-18.1,M,,0000*5E
$GPGSA,A,3,25,31,11,01,14,22,12,32,,,,,2.2,1.2,1.8*3B
$GPGSV,3,1,12,32,66,301,42,01,54,276,39,31,53,139,38,14,42,059,46*7D
$GPGSV,3,2,12,11,41,237,23,20,28,296,17,22,17,112,26,25,12,074,32*7C
$GPGSV,3,3,12,12,08,038,27,17,08,327,,23,06,245,17,19,01,220,*7C
$GPRMC,235021.028,A,4738.9990,N,12207.0555,W,000.0,181.1,251213,,,A*7C
$GPVTG,181.1,T,,M,000.0,N,000.0,K,A*04
$GPGGA,235022.028,4738.9990,N,12207.0555,W,1,08,1.2,36.4,M,-18.1,M,,0000*5D
$GPGSA,A,3,25,31,11,01,14,22,12,32,,,,,2.2,1.2,1.8*3B
$GPGSV,3,1,12,32,66,301,42,01,54,276,39,31,53,139,38,14,42,059,46*7D
$GPGSV,3,2,12,11,41,237,23,20,28,296,16,22,17,112,26,25,12,074,32*7D
$GPGSV,3,3,12,12,08,038,27,17,08,327,,23,06,245,16,19,01,220,*7D
$GPRMC,235022.028,A,4738.9990,N,12207.0555,W,000.0,181.1,251213,,,A*7F
$GPVTG,181.1,T,,M,000.0,N,000.0,K,A*04
$GPGGA,235023.028,4738.9990,N,12207.0555,W,1,08,1.2,36.4,M,-18.1,M,,0000*5C
$GPGSA,A,3,25,31,11,01,14,22,12,32,,,,,2.2,1.2,1.8*3B
$GPGSV,3,1,12,32,66,301,42,01,54,276,39,31,53,139,38,14,42,059,46*7D
$GPGSV,3,2,12,11,41,237,23,20,28,296,16,22,17,112,25,25,12,074,32*7E
$GPGSV,3,3,12,12,08,038,27,17,08,327,,23,06,245,14,19,01,220,*7F
$GPRMC,235023.028,A,4738.9990,N,12207.0555,W,000.0,181.1,251213,,,A*7E
$GPVTG,181.1,T,,M,000.0,N,000.0,K,A*04
$GPGGA,235024.028,4738.9990,N,12207.0555,W,1,08,1.2,36.4,M,-18.1,M,,0000*5B
$GPGSA,A,3,25,31,11,01,14,22,12,32,,,,,2.2,1.2,1.8*3B
$GPGSV,3,1,12,32,66,301,42,01,54,276,39,31,53,139,38,14,42,059,46*7D
$GPGSV,3,2,12,11,41,237,23,20,28,296,15,22,17,112,26,25,12,074,33*7F
$GPGSV,3,3,12,12,08,038,27,17,08,327,,23,06,245,14,19,01,220,*7F
$GPRMC,235024.028,A,4738.9990,N,12207.0555,W,000.0,181.1,251213,,,A*79
$GPVTG,181.1,T,,M,000.0,N,000.0,K,A*04
$GPGGA,235025.028,4738.9990,N,12207.0555,W,1,08,1.2,36.4,M,-18.1,M,,0000*5A
$GPGSA,A,3,25,31,11,01,14,22,12,32,,,,,2.2,1.2,1.8*3B
$GPGSV,3,1,12,32,66,301,42,01,54,276,39,31,53,139,39,14,42,059,46*7C
$GPGSV,3,2,12,11,41,237,23,20,28,296,15,22,17,112,26,25,12,074,33*7F
$GPGSV,3,3,12,12,08,038,27,17,08,327,,23,06,245,15,19,01,220,*7E
$GPRMC,235025.028,A,4738.9990,N,12207.0555,W,000.0,181.1,251213,,,A*78
$GPVTG,181.1,T,,M,000.0,N,000.0,K,A*04
$GPGGA,235026.028,4738.9990,N,12207.0555,W,1,08,1.2,36.4,M,-18.1,M,,0000*59
$GPGSA,A,3,25,31,11,01,14,22,12,32,,,,,2.2,1.2,1.8*3B
$GPGSV,3,1,12,32,66,301,42,01,54,276,39,31,53,139,39,14,42,059,46*7C
$GPGSV,3,2,12,11,41,237,24,20,28,296,15,22,17,112,26,25,12,074,33*78
$GPGSV,3,3,12,12,08,038,26,17,08,327,,23,06,245,15,19,01,220,*7F
$GPRMC,235026.028,A,4738.9990,N,12207.0555,W,000.0,181.1,251213,,,A*7B
$GPVTG,181.1,T,,M,000.0,N,000.0,K,A*04
$GPGGA,235027.028,4738.9990,N,12207.0555,W,1,08,1.2,36.4,M,-18.1,M,,0000*58
$GPGSA,A,3,25,31,11,01,14,22,12,32,,,,,2.2,1.2,1.8*3B
$GPGSV,3,1,12,32,66,301,42,01,54,276,39,31,53,139,39,14,42,059,46*7C
$GPGSV,3,2,12,11,41,237,24,20,28,296,15,22,17,112,26,25,12,074,33*78
$GPGSV,3,3,12,12,08,038,25,17,08,327,,23,06,245,15,19,01,220,*7C
$GPRMC,235027.028,A,4738.9990,N,12207.0555,W,000.0,181.1,251213,,,A*7A
$GPVTG,181.1,T,,M,000.0,N,000.0,K,A*04
$GPGGA,235028.028,4738.9990,N,12207.0555,W,1,08,1.2,36.4,M,-18.1,M,,0000*57
$GPGSA,A,3,25,31,11,01,14,22,12,32,,,,,2.2,1.2,1.8*3B
$GPGSV,3,1,12,32,66,301,42,01,54,276,39,31,53,139,39,14,42,059,45*7F
$GPGSV,3,2,12,11,41,237,25,20,28,296,14,22,17,112,26,25,12,074,33*78
$GPGSV,3,3,12,12,08,038,25,17,08,327,,23,06,245,16,19,01,220,*7F
$GPRMC,235028.028,A,4738.9990,N,12207.0555,W,000.0,181.1,251213,,,A*75
$GPVTG,181.1,T,,M,000.0,N,000.0,K,A*04
$GPGGA,235029.028,4738.9990,N,12207.0555,W,1,08,1.2,36.4,M,-18.1,M,,0000*56
$GPGSA,A,3,25,31,11,01,14,22,12,32,,,,,2.2,1.2,1.8*3B
$GPGSV,3,1,12,32,66,301,42,01,54,276,39,31,53,139,39,14,42,059,45*7F
$GPGSV,3,2,12,11,41,237,26,20,28,296,14,22,17,112,26,25,12,074,33*7B
$GPGSV,3,3,12,12,08,038,26,17,08,327,,23,06,245,15,19,01,220,*7F
$GPRMC,235029.028,A,4738.9990,N,12207.0555,W,000.0,181.1,251213,,,A*74
$GPVTG,181.1,T,,M,000.0,N,000.0,K,A*04
$GPGGA,235030.028,4738.9990,N,12207.0555,W,1,08,1.2,36.4,M,-18.1,M,,0000*5E
$GPGSA,A,3,25,31,11,01,14,22,12,32,,,,,2.2,1.2,1.8*3B
$GPGSV,3,1,12,32,66,301,42,01,54,276,38,31,53,139,39,14,42,059,45*7E
$GPGSV,3,2,12,11,41,237,26,20,28,296,12,22,17,112,26,25,12,074,33*7D
$GPGSV,3,3,12,12,08,037,26,17,08,327,,23,06,245,14,19,01,220,*71
$GPRMC,235030.028,A,4738.9990,N,12207.0555,W,000.0,181.1,251213,,,A*7C
$GPVTG,181.1,T,,M,000.0,N,000.0,K,A*04
$GPGGA,235031.028,4738.9990,N,12207.0555,W,1,08,1.2,36.4,M,-18.1,M,,0000*5F
$GPGSA,A,3,25,31,11,01,14,22,12,32,,,,,2.2,1.2,1.8*3B
$GPGSV,3,1,12,32,66,301,42,01,54,276,39,31,53,139,39,14,42,059,45*7F
$GPGSV,3,2,12,11,41,237,26,20,28,296,14,22,17,112,26,25,12,074,33*7B
$GPGSV,3,3,12,12,08,037,26,17,08,327,,23,06,245,15,19,01,220,*70
$GPRMC,235031.028,A,4738.9990,N,12207.0555,W,000.0,181.1,251213,,,A*7D
$GPVTG,181.1,T,,M,000.0,N,000.0,K,A*04
$GPGGA,235032.028,4738.9990,N,12207.0555,W,1,08,1.2,36.4,M,-18.1,M,,0000*5C
$GPGSA,A,3,25,31,11,01,14,22,12,32,,,,,2.2,1.2,1.8*3B
$GPGSV,3,1,12,32,66,301,42,01,54,276,39,31,53,139,38,14,42,059,45*7E
$GPGSV,3,2,12,11,41,237,26,20,28,296,14,22,17,112,26,25,12,074,34*7C
$GPGSV,3,3,12,12,08,037,26,17,08,327,,23,06,245,15,19,01,220,*70
$GPRMC,235032.028,A,4738.9990,N,12207.0555,W,000.0,181.1,251213,,,A*7E
$GPVTG,181.1,T,,M,000.0,N,000.0,K,A*04
$GPGGA,235033.028,4738.9990,N,12207.0555,W,1,08,1.2,36.4,M,-18.1,M,,0000*5D
$GPGSA,A,3,25,31,11,01,14,22,12,32,,,,,2.2,1.2,1.8*3B
$GPGSV,3,1,12,32,66,301,42,01,54,276,39,31,53,139,38,14,42,059,45*7E
$GPGSV,3,2,12,11,41,237,26,20,28,296,19,22,17,112,25,25,12,074,34*72
$GPGSV,3,3,12,12,08,037,26,17,08,327,,23,06,245,16,19,01,220,*73
$GPRMC,235033.028,A,4738.9990,N,12207.0555,W,000.0,181.1,251213,,,A*7F
$GPVTG,181.1,T,,M,000.0,N,000.0,K,A*04
$GPGGA,235034.028,4738.9990,N,12207.0555,W,1,08,1.2,36.4,M,-18.1,M,,0000*5A
$GPGSA,A,3,25,31,11,01,14,22,12,32,,,,,2.2,1.2,1.8*3B
$GPGSV,3,1,12,32,66,301,41,01,54,276,38,31,53,139,38,14,42,059,45*7C
$GPGSV,3,2,12,11,41,237,28,20,28,296,21,22,17,112,26,25,12,074,34*74
$GPGSV,3,3,12,12,08,037,26,17,08,327,,23,06,245,16,19,01,220,*73
$GPRMC,235034.028,A,4738.9990,N,12207.0555,W,000.0,181.1,251213,,,A*78
$GPVTG,181.1,T,,M,000.0,N,000.0,K,A*04
$GPGGA,235035.028,4738.9990,N,12207.0555,W,1,08,1.2,36.4,M,-18.1,M,,0000*5B
$GPGSA,A,3,25,31,11,01,14,22,12,32,,,,,2.2,1.2,1.8*3B
$GPGSV,3,1,12,32,66,301,42,01,54,276,39,31,53,139,38,14,42,059,45*7E
$GPGSV,3,2,12,11,41,237,27,20,28,296,24,22,17,112,26,25,12,074,34*7E
$GPGSV,3,3,12,12,08,037,26,17,08,327,,23,06,245,17,19,01,220,*72
$GPRMC,235035.028,A,4738.9990,N,12207.0555,W,000.0,181.1,251213,,,A*79
$GPVTG,181.1,T,,M,000.0,N,000.0,K,A*04
$GPGGA,235036.028,4738.9990,N,12207.0555,W,1,08,1.2,36.4,M,-18.1,M,,0000*58
$GPGSA,A,3,25,31,11,01,14,22,12,32,,,,,2.2,1.2,1.8*3B
$GPGSV,3,1,12,32,66,301,41,01,54,276,39,31,53,139,38,14,42,059,45*7D
$GPGSV,3,2,12,11,41,237,28,20,28,296,27,22,17,112,26,25,12,074,34*72
$GPGSV,3,3,12,12,08,037,26,17,08,327,,23,06,245,18,19,01,220,*7D
$GPRMC,235036.028,A,4738.9990,N,12207.0555,W,000.0,181.1,251213,,,A*7A
$GPVTG,181.1,T,,M,000.0,N,000.0,K,A*04
$GPGGA,235037.028,4738.9990,N,12207.0555,W,1,08,1.2,36.4,M,-18.1,M,,0000*59
$GPGSA,A,3,25,31,11,01,14,22,12,32,,,,,2.2,1.2,1.8*3B
$GPGSV,3,1,12,32,66,301,41,01,54,276,39,31,53,139,38,14,42,059,45*7D
$GPGSV,3,2,12,11,41,237,28,20,28,296,27,22,17,112,26,25,12,074,34*72
$GPGSV,3,3,12,12,08,037,27,17,08,327,,23,06,245,18,19,01,219,*76
$GPRMC,235037.028,A,4738.9990,N,12207.0555,W,000.0,181.1,251213,,,A*7B
$GPVTG,181.1,T,,M,000.0,N,000.0,K,A*04
$GPGGA,235038.028,4738.9990,N,12207.0555,W,1,09,1.1,36.4,M,-18.1,M,,0000*54
$GPGSA,A,3,20,25,31,11,01,14,22,12,32,,,,2.0,1.1,1.6*36
$GPGSV,3,1,12,32,66,301,41,01,54,276,38,31,53,139,39,14,42,059,46*7E
$GPGSV,3,2,12,11,41,237,28,20,28,296,28,22,17,112,26,25,12,074,35*7C
$GPGSV,3,3,12,12,08,037,27,17,08,327,,23,06,245,20,19,01,219,*7D
$GPRMC,235038.028,A,4738.9990,N,12207.0555,W,000.0,181.1,251213,,,A*74
$GPVTG,181.1,T,,M,000.0,N,000.0,K,A*04
$GPGGA,235039.028,4738.9990,N,12207.0555,W,1,09,1.1,36.4,M,-18.1,M,,0000*55
$GPGSA,A,3,20,25,31,11,01,14,22,12,32,,,,2.0,1.1,1.6*36
$GPGSV,3,1,12,32,66,301,42,01,54,276,39,31,53,139,38,14,42,059,46*7D
$GPGSV,3,2,12,11,41,237,28,20,28,296,28,22,17,112,27,25,12,074,34*7C
$GPGSV,3,3,12,12,08,037,27,17,08,327,,23,06,245,20,19,01,219,*7D
$GPRMC,235039.028,A,4738.9990,N,12207.0555,W,000.0,181.1,251213,,,A*75
$GPVTG,181.1,T,,M,000.0,N,000.0,K,A*04
$GPGGA,235040.028,4738.9990,N,12207.0555,W,1,09,1.1,36.4,M,-18.1,M,,0000*5B
$GPGSA,A,3,20,25,31,11,01,14,22,12,32,,,,2.0,1.1,1.6*36
$GPGSV,3,1,12,32,66,301,42,01,54,276,39,31,53,139,39,14,42,059,45*7F
$GPGSV,3,2,12,11,41,237,27,20,28,296,27,22,16,112,26,25,12,074,34*7C
$GPGSV,3,3,12,12,08,037,27,17,08,327,,23,06,245,20,19,01,219,*7D
$GPRMC,235040.028,A,4738.9990,N,12207.0555,W,000.0,181.1,251213,,,A*7B
$GPVTG,181.1,T,,M,000.0,N,000.0,K,A*04
$GPGGA,235041.028,4738.9990,N,12207.0555,W,1,09,1.1,36.4,M,-18.1,M,,0000*5A
$GPGSA,A,3,20,25,31,11,01,14,22,12,32,,,,2.0,1.1,1.6*36
$GPGSV,3,1,12,32,66,301,42,01,54,276,39,31,53,139,39,14,42,059,45*7F
$GPGSV,3,2,12,11,41,237,28,20,28,296,28,22,16,112,27,25,12,074,34*7D
$GPGSV,3,3,12,17,08,327,00,12,08,037,26,23,06,246,20,19,01,219,*7F
$GPRMC,235041.028,A,4738.9990,N,12207.0555,W,000.0,181.1,251213,,,A*7A
$GPVTG,181.1,T,,M,000.0,N,000.0,K,A*04
$GPGGA,235042.028,4738.9990,N,12207.0555,W,1,09,1.1,36.4,M,-18.1,M,,0000*59
$GPGSA,A,3,20,25,31,11,01,14,22,12,32,,,,2.0,1.1,1.6*36
$GPGSV,3,1,12,32,66,301,42,01,54,276,39,31,53,139,38,14,42,059,45*7E
$GPGSV,3,2,12,11,41,237,26,20,28,296,29,22,16,112,27,25,12,074,34*72
$GPGSV,3,3,12,17,08,327,00,12,08,037,26,23,06,246,20,19,01,219,*7F
$GPRMC,235042.028,A,4738.9990,N,12207.0555,W,000.0,181.1,251213,,,A*79
$GPVTG,181.1,T,,M,000.0,N,000.0,K,A*04
$GPGGA,235043.028,4738.9990,N,12207.0555,W,1,09,1.1,36.4,M,-18.1,M,,0000*58
$GPGSA,A,3,20,25,31,11,01,14,22,12,32,,,,2.0,1.1,1.6*36
$GPGSV,3,1,12,32,66,301,42,01,54,276,39,31,53,139,39,14,42,059,45*7F
$GPGSV,3,2,12,11,41,237,27,20,28,296,28,22,16,112,26,25,12,074,34*73
$GPGSV,3,3,12,12,08,037,26,17,08,327,,23,06,246,20,19,01,219,*7F
$GPRMC,235043.028,A,4738.9990,N,12207.0555,W,000.0,181.1,251213,,,A*78
$GPVTG,181.1,T,,M,000.0,N,000.0,K,A*04
$GPGGA,235044.028,4738.9990,N,12207.0555,W,1,09,1.1,36.4,M,-18.1,M,,0000*5F
$GPGSA,A,3,20,25,31,11,01,14,22,12,32,,,,2.0,1.1,1.6*36
$GPGSV,3,1,12,32,66,301,42,01,54,276,39,31,53,139,39,14,42,059,45*7F
$GPGSV,3,2,12,11,41,237,27,20,28,296,29,22,16,112,26,25,12,074,34*72
$GPGSV,3,3,12,12,08,037,27,17,08,327,,23,06,246,20,19,01,219,*7E
$GPRMC,235044.028,A,4738.9990,N,12207.0555,W,000.0,181.1,251213,,,A*7F
$GPVTG,181.1,T,,M,000.0,N,000.0,K,A*04
$GPGGA,235045.028,4738.9990,N,12207.0555,W,1,09,1.1,36.4,M,-18.1,M,,0000*5E
$GPGSA,A,3,20,25,31,11,01,14,22,12,32,,,,2.0,1.1,1.6*36
$GPGSV,3,1,12,32,66,301,42,01,54,276,38,31,53,139,39,14,42,059,45*7E
$GPGSV,3,2,12,11,41,237,26,20,28,296,29,22,16,112,27,25,12,074,34*72
$GPGSV,3,3,12,12,08,037,26,17,08,327,,23,06,246,20,19,01,219,*7F
$GPRMC,235045.028,A,4738.9990,N,12207.0555,W,000.0,181.1,251213,,,A*7E
$GPVTG,181.1,T,,M,000.0,N,000.0,K,A*04
$GPGGA,235046.028,4738.9990,N,12207.0555,W,1,09,1.1,36.4,M,-18.1,M,,0000*5D
$GPGSA,A,3,20,25,31,11,01,14,22,12,32,,,,2.0,1.1,1.6*36
$GPGSV,3,1,12,32,66,301,42,01,54,276,39,31,53,139,39,14,42,059,46*7C
$GPGSV,3,2,12,11,41,237,26,20,28,296,29,22,16,112,26,25,12,074,33*74
$GPGSV,3,3,12,12,08,037,26,17,08,327,,23,06,246,21,19,01,219,*7E
$GPRMC,235046.028,A,4738.9990,N,12207.0555,W,000.0,181.1,251213,,,A*7D
$GPVTG,181.1,T,,M,000.0,N,000.0,K,A*04
$GPGGA,235047.028,4738.9990,N,12207.0555,W,1,09,1.1,36.4,M,-18.1,M,,0000*5C
$GPGSA,A,3,20,25,31,11,01,14,22,12,32,,,,2.0,1.1,1.6*36
$GPGSV,3,1,12,32,66,301,42,01,54,276,39,31,53,139,39,14,42,059,46*7C
$GPGSV,3,2,12,11,41,237,26,20,28,296,29,22,16,112,26,25,12,074,34*73
$GPGSV,3,3,12,17,08,327,17,12,08,037,25,23,06,246,21,19,01,219,*7B
$GPRMC,235047.028,A,4738.9990,N,12207.0555,W,000.0,181.1,251213,,,A*7C
$GPVTG,181.1,T,,M,000.0,N,000.0,K,A*04
$GPGGA,235048.028,4738.9990,N,12207.0555,W,1,09,1.1,36.4,M,-18.1,M,,0000*53
$GPGSA,A,3,20,25,31,11,01,14,22,12,32,,,,2.0,1.1,1.6*36
$GPGSV,3,1,12,32,66,301,42,01,54,276,39,31,54,138,39,14,42,059,45*79
$GPGSV,3,2,12,11,41,237,26,20,28,296,29,22,16,112,25,25,12,074,34*70
$GPGSV,3,3,12,17,08,327,20,12,08,037,25,23,06,246,21,19,01,219,*7F
$GPRMC,235048.028,A,4738.9990,N,12207.0555,W,000.0,181.1,251213,,,A*73
$GPVTG,181.1,T,,M,000.0,N,000.0,K,A*04
$GPGGA,235049.028,4738.9990,N,12207.0555,W,1,09,1.1,36.4,M,-18.1,M,,0000*52
$GPGSA,A,3,20,25,31,11,01,14,22,12,32,,,,2.0,1.1,1.6*36
$GPGSV,3,1,12,32,66,302,42,01,54,276,39,31,54,138,39,14,42,059,45*7A
$GPGSV,3,2,12,11,41,237,27,20,28,296,29,22,16,112,25,25,12,074,34*71
$GPGSV,3,3,12,17,08,327,20,12,08,037,25,23,06,246,21,19,01,219,*7F
$GPRMC,235049.028,A,4738.9990,N,12207.0555,W,000.0,181.1,251213,,,A*72
$GPVTG,181.1,T,,M,000.0,N,000.0,K,A*04
$GPGGA,235050.028,4738.9990,N,12207.0555,W,1,09,1.1,36.4,M,-18.1,M,,0000*5A
$GPGSA,A,3,20,25,31,11,01,14,22,12,32,,,,2.0,1.1,1.6*36
$GPGSV,3,1,12,32,66,302,42,01,54,275,39,31,54,138,38,14,42,059,45*78
$GPGSV,3,2,12,11,41,237,27,20,28,296,29,22,16,112,25,25,12,074,34*71
$GPGSV,3,3,12,17,08,327,20,12,08,037,25,23,06,246,20,19,01,219,*7E
$GPRMC,235050.028,A,4738.9990,N,12207.0555,W,000.0,181.1,251213,,,A*7A
$GPVTG,181.1,T,,M,000.0,N,000.0,K,A*04
$GPGGA,235051.028,4738.9990,N,12207.0555,W,1,09,1.1,36.4,M,-18.1,M,,0000*5B
$GPGSA,A,3,20,25,31,11,01,14,22,12,32,,,,2.0,1.1,1.6*36
$GPGSV,3,1,12,32,66,302,42,01,54,275,39,31,54,138,39,14,42,059,46*7A
$GPGSV,3,2,12,11,41,237,29,20,28,296,30,22,16,112,25,25,12,074,33*70
$GPGSV,3,3,12,17,08,327,20,12,08,037,25,23,06,246,20,19,01,219,*7E
$GPRMC,235051.028,A,4738.9990,N,12207.0555,W,000.0,181.1,251213,,,A*7B
$GPVTG,181.1,T,,M,000.0,N,000.0,K,A*04
$GPGGA,235052.028,4738.9990,N,12207.0555,W,1,09,1.1,36.4,M,-18.1,M,,0000*58
$GPGSA,A,3,20,25,31,11,01,14,22,12,32,,,,2.0,1.1,1.6*36
$GPGSV,3,1,12,32,66,302,42,01,54,275,39,31,54,138,39,14,42,059,46*7A
$GPGSV,3,2,12,11,41,237,29,20,28,296,29,22,16,112,24,25,12,074,33*79
$GPGSV,3,3,12,17,08,327,20,12,08,037,25,23,06,246,20,19,01,219,*7E
$GPRMC,235052.028,A,4738.9990,N,12207.0555,W,000.0,181.1,251213,,,A*78
$GPVTG,181.1,T,,M,000.0,N,000.0,K,A*04
$GPGGA,235053.028,4738.9990,N,12207.0555,W,1,09,1.1,36.4,M,-18.1,M,,0000*59
$GPGSA,A,3,20,25,31,11,01,14,22,12,32,,,,2.0,1.1,1.6*36
$GPGSV,3,1,12,32,66,302,42,01,54,275,39,31,54,138,39,14,42,059,46*7A
$GPGSV,3,2,12,11,41,237,30,20,28,296,29,22,16,112,24,25,12,074,33*71
$GPGSV,3,3,12,17,08,327,19,12,08,037,25,23,06,246,20,19,01,219,*74
$GPRMC,235053.028,A,4738.9990,N,12207.0555,W,000.0,181.1,251213,,,A*79
$GPVTG,181.1,T,,M,000.0,N,000.0,K,A*04
$GPGGA,235054.028,4738.9990,N,12207.0555,W,1,09,1.1,36.4,M,-18.1,M,,0000*5E
$GPGSA,A,3,20,25,31,11,01,14,22,12,32,,,,2.0,1.1,1.6*36
$GPGSV,3,1,12,32,66,302,42,01,54,275,38,31,54,138,39,14,42,059,46*7B
$GPGSV,3,2,12,11,41,237,30,20,28,296,29,22,16,112,24,25,12,074,33*71
$GPGSV,3,3,12,17,08,327,19,12,08,037,25,23,06,246,20,19,01,219,*74
$GPRMC,235054.028,A,4738.9990,N,12207.0555,W,000.0,181.1,251213,,,A*7E
$GPVTG,181.1,T,,M,000.0,N,000.0,K,A*04
$GPGGA,235055.028,4738.9990,N,12207.0555,W,1,09,1.1,36.4,M,-18.1,M,,0000*5F
$GPGSA,A,3,20,25,31,11,01,14,22,12,32,,,,2.0,1.1,1.6*36
$GPGSV,3,1,12,32,66,302,42,01,54,275,38,31,54,138,39,14,42,059,46*7B
$GPGSV,3,2,12,11,41,237,29,20,28,296,29,22,16,112,23,25,12,074,34*79
$GPGSV,3,3,12,17,08,327,20,12,08,037,25,23,06,246,20,19,01,219,*7E
$GPRMC,235055.028,A,4738.9990,N,12207.0555,W,000.0,181.1,251213,,,A*7F
$GPVTG,181.1,T,,M,000.0,N,000.0,K,A*04
$GPGGA,235056.028,4738.9990,N,12207.0555,W,1,09,1.1,36.4,M,-18.1,M,,0000*5C
$GPGSA,A,3,20,25,31,11,01,14,22,12,32,,,,2.0,1.1,1.6*36
$GPGSV,3,1,12,32,66,302,42,01,54,275,38,31,54,138,39,14,42,059,46*7B
$GPGSV,3,2,12,11,41,237,30,20,28,296,29,22,16,112,23,25,12,074,34*71
$GPGSV,3,3,12,17,08,327,20,12,08,037,25,23,06,246,20,19,01,219,*7E
$GPRMC,235056.028,A,4738.9990,N,12207.0555,W,000.0,181.1,251213,,,A*7C
$GPVTG,181.1,T,,M,000.0,N,000.0,K,A*04
$GPGGA,235057.028,4738.9990,N,12207.0555,W,1,09,1.1,36.4,M,-18.1,M,,0000*5D
$GPGSA,A,3,20,25,31,11,01,14,22,12,32,,,,2.0,1.1,1.6*36
$GPGSV,3,1,12,32,66,302,42,01,54,275,38,31,54,138,39,14,42,059,45*78
$GPGSV,3,2,12,11,41,237,30,20,28,296,28,22,16,112,22,25,12,074,34*71
$GPGSV,3,3,12,17,08,327,20,12,08,037,25,23,06,246,19,19,01,219,*74
$GPRMC,235057.028,A,4738.9990,N,12207.0555,W,000.0,181.1,251213,,,A*7D
$GPVTG,181.1,T,,M,000.0,N,000.0,K,A*04
$GPGGA,235058.028,4738.9990,N,12207.0555,W,1,09,1.1,36.4,M,-18.1,M,,0000*52
$GPGSA,A,3,20,25,31,11,01,14,22,12,32,,,,2.0,1.1,1.6*36
$GPGSV,3,1,12,32,66,302,42,01,54,275,38,31,54,138,39,14,42,059,45*78
$GPGSV,3,2,12,11,41,237,30,20,28,296,28,22,16,112,21,25,12,074,34*72
$GPGSV,3,3,12,17,08,327,20,12,08,037,25,23,06,246,19,19,01,219,*74
$GPRMC,235058.028,A,4738.9990,N,12207.0555,W,000.0,181.1,251213,,,A*72
$GPVTG,181.1,T,,M,000.0,N,000.0,K,A*04
$GPGGA,235059.028,4738.9990,N,12207.0555,W,1,08,1.3,36.4,M,-18.1,M,,0000*50
$GPGSA,A,3,20,25,31,11,01,14,12,32,,,,,2.2,1.3,1.8*38
$GPGSV,3,1,12,32,66,302,42,01,54,275,38,31,54,138,39,14,42,059,46*7B
$GPGSV,3,2,12,11,41,237,30,20,28,296,28,22,16,112,20,25,12,074,34*73
$GPGSV,3,3,12,17,08,327,19,12,08,037,24,23,06,246,19,19,01,219,*7F
$GPRMC,235059.028,A,4738.9990,N,12207.0555,W,000.0,181.1,251213,,,A*73
$GPVTG,181.1,T,,M,000.0,N,000.0,K,A*04
$GPGGA,235100.028,4738.9990,N,12207.0555,W,1,09,1.1,36.4,M,-18.1,M,,0000*5E
$GPGSA,A,3,20,25,31,11,01,14,22,12,32,,,,2.0,1.1,1.6*36
$GPGSV,3,1,12,32,66,302,42,01,54,275,38,31,54,138,38,14,42,059,45*79
$GPGSV,3,2,12,11,40,236,30,20,28,296,27,22,16,112,20,25,12,074,33*7B
$GPGSV,3,3,12,17,08,327,19,12,08,037,24,23,06,246,19,19,01,219,*7F
$GPRMC,235100.028,A,4738.9990,N,12207.0555,W,000.0,181.1,251213,,,A*7E
$GPVTG,181.1,T,,M,000.0,N,000.0,K,A*04
$GPGGA,235101.028,4738.9990,N,12207.0555,W,1,09,1.1,36.4,M,-18.1,M,,0000*5F
$GPGSA,A,3,20,25,31,11,01,14,22,12,32,,,,2.0,1.1,1.6*36
$GPGSV,3,1,12,32,66,302,42,01,54,275,38,31,54,138,38,14,42,059,46*7A
$GPGSV,3,2,12,11,40,236,30,20,28,296,27,22,16,112,19,25,12,074,34*76
$GPGSV,3,3,12,17,08,327,19,12,08,037,24,23,06,246,18,19,01,219,*7E
$GPRMC,235101.028,A,4738.9990,N,12207.0555,W,000.0,181.1,251213,,,A*7F
$GPVTG,181.1,T,,M,000.0,N,000.0,K,A*04
$GPGGA,235102.028,4738.9990,N,12207.0555,W,1,09,1.1,36.4,M,-18.1,M,,0000*5C
$GPGSA,A,3,20,25,31,11,01,14,22,12,32,,,,2.0,1.1,1.6*36
$GPGSV,3,1,12,32,66,302,42,01,54,275,38,31,54,138,38,14,42,059,46*7A
$GPGSV,3,2,12,11,40,236,30,20,28,296,27,22,16,112,18,25,12,074,34*77
$GPGSV,3,3,12,17,08,327,19,12,08,037,24,23,06,246,18,19,01,219,*7E
$GPRMC,235102.028,A,4738.9990,N,12207.0555,W,000.0,181.1,251213,,,A*7C
$GPVTG,181.1,T,,M,000.0,N,000.0,K,A*04
$GPGGA,235103.028,4738.9990,N,12207.0555,W,1,09,1.1,36.4,M,-18.1,M,,0000*5D
$GPGSA,A,3,20,25,31,11,01,14,22,12,32,,,,2.0,1.1,1.6*36
$GPGSV,3,1,12,32,66,302,42,01,54,275,38,31,54,138,38,14,42,059,46*7A
$GPGSV,3,2,12,11,40,236,30,20,28,296,27,22,16,112,18,25,12,074,34*77
$GPGSV,3,3,12,17,08,327,18,12,08,037,23,23,06,246,18,19,01,219,*78
$GPRMC,235103.028,A,4738.9990,N,12207.0555,W,000.0,181.1,251213,,,A*7D
$GPVTG,181.1,T,,M,000.0,N,000.0,K,A*04
$GPGGA,235104.028,4738.9990,N,12207.0555,W,1,09,1.1,36.4,M,-18.1,M,,0000*5A
$GPGSA,A,3,20,25,31,11,01,14,22,12,32,,,,2.0,1.1,1.6*36
$GPGSV,3,1,12,32,66,302,42,01,54,275,38,31,54,138,38,14,42,059,46*7A
$GPGSV,3,2,12,11,40,236,29,20,28,296,27,22,16,112,18,25,12,074,33*78
$GPGSV,3,3,12,17,08,327,18,12,08,037,23,23,06,246,17,19,01,219,*77
$GPRMC,235104.028,A,4738.9990,N,12207.0555,W,000.0,181.1,251213,,,A*7A
$GPVTG,181.1,T,,M,000.0,N,000.0,K,A*04
$GPGGA,235105.028,4738.9990,N,12207.0555,W,1,09,1.1,36.4,M,-18.1,M,,0000*5B
$GPGSA,A,3,20,25,31,11,01,14,22,12,32,,,,2.0,1.1,1.6*36
$GPGSV,3,1,12,32,66,302,42,01,54,275,38,31,54,138,38,14,42,059,46*7A
$GPGSV,3,2,12,11,40,236,29,20,28,296,27,22,16,112,19,25,12,074,34*7E
$GPGSV,3,3,12,17,08,327,19,12,08,037,23,23,06,246,17,19,01,219,*76
$GPRMC,235105.028,A,4738.9990,N,12207.0555,W,000.0,181.1,251213,,,A*7B
$GPVTG,181.1,T,,M,000.0,N,000.0,K,A*04
$GPGGA,235106.028,4738.9990,N,12207.0555,W,1,09,1.1,36.4,M,-18.1,M,,0000*58
$GPGSA,A,3,20,25,31,11,01,14,22,12,32,,,,2.0,1.1,1.6*36
$GPGSV,3,1,12,32,66,302,42,01,54,275,38,31,54,138,37,14,42,059,46*75
$GPGSV,3,2,12,11,40,236,29,20,28,296,26,22,16,112,20,25,12,074,34*75
$GPGSV,3,3,12,17,08,326,19,12,08,037,24,23,06,246,18,19,01,219,*7F
$GPRMC,235106.028,A,4738.9990,N,12207.0555,W,000.0,181.1,251213,,,A*78
$GPVTG,181.1,T,,M,000.0,N,000.0,K,A*04
$GPGGA,235107.028,4738.9990,N,12207.0555,W,1,09,1.1,36.4,M,-18.1,M,,0000*59
$GPGSA,A,3,20,25,31,11,01,14,22,12,32,,,,2.0,1.1,1.6*36
$GPGSV,3,1,12,32,66,302,42,01,54,275,38,31,54,138,38,14,42,059,46*7A
$GPGSV,3,2,12,11,40,236,29,20,28,296,27,22,16,112,20,25,12,074,34*74
$GPGSV,3,3,12,17,08,326,19,12,08,037,24,23,06,246,18,19,01,219,*7F
$GPRMC,235107.028,A,4738.9990,N,12207.0555,W,000.0,181.1,251213,,,A*79
$GPVTG,181.1,T,,M,000.0,N,000.0,K,A*04
$GPGGA,235108.028,4738.9990,N,12207.0555,W,1,09,1.1,36.4,M,-18.1,M,,0000*56
$GPGSA,A,3,20,25,31,11,01,14,22,12,32,,,,2.0,1.1,1.6*36
$GPGSV,3,1,12,32,66,302,42,01,54,275,38,31,54,138,37,14,42,059,46*75
$GPGSV,3,2,12,11,40,236,28,20,28,296,27,22,16,112,22,25,12,074,34*77
$GPGSV,3,3,12,17,08,326,20,12,08,037,26,23,06,246,17,19,01,219,*78
$GPRMC,235108.028,A,4738.9990,N,12207.0555,W,000.0,181.1,251213,,,A*76
$GPVTG,181.1,T,,M,000.0,N,000.0,K,A*04
$GPGGA,235109.028,4738.9990,N,12207.0555,W,1,09,1.1,36.4,M,-18.1,M,,0000*57
$GPGSA,A,3,20,25,31,11,01,14,22,12,32,,,,2.0,1.1,1.6*36
$GPGSV,3,1,12,32,66,302,42,01,54,275,37,31,54,138,37,14,42,059,46*7A
$GPGSV,3,2,12,11,40,236,27,20,28,296,27,22,16,112,22,25,12,074,34*78
$GPGSV,3,3,12,17,08,326,20,12,08,037,26,23,06,246,18,19,01,219,*77
$GPRMC,235109.028,A,4738.9990,N,12207.0555,W,000.0,181.1,251213,,,A*77
$GPVTG,181.1,T,,M,000.0,N,000.0,K,A*04
$GPGGA,235110.028,4738.9990,N,12207.0555,W,1,09,1.1,36.4,M,-18.1,M,,0000*5F
$GPGSA,A,3,20,25,31,11,01,14,22,12,32,,,,2.0,1.1,1.6*36
$GPGSV,3,1,12,32,66,302,42,01,54,275,38,31,54,138,37,14,42,059,46*75
$GPGSV,3,2,12,11,40,236,27,20,28,296,28,22,16,112,23,25,12,074,34*76
$GPGSV,3,3,12,17,08,326,20,12,08,037,27,23,06,246,18,19,01,219,*76
$GPRMC,235110.028,A,4738.9990,N,12207.0555,W,000.0,181.1,251213,,,A*7F
$GPVTG,181.1,T,,M,000.0,N,000.0,K,A*04
$GPGGA,235111.028,4738.9990,N,12207.0555,W,1,09,1.1,36.4,M,-18.1,M,,0000*5E
$GPGSA,A,3,20,25,31,11,01,14,22,12,32,,,,2.0,1.1,1.6*36
$GPGSV,3,1,12,32,66,302,42,01,54,275,38,31,54,138,37,14,42,059,46*75
$GPGSV,3,2,12,11,40,236,28,20,28,296,28,22,16,112,24,25,12,074,35*7F
$GPGSV,3,3,12,17,08,326,20,12,08,037,27,23,06,246,17,19,01,219,*79
$GPRMC,235111.028,A,4738.9990,N,12207.0555,W,000.0,181.1,251213,,,A*7E
$GPVTG,181.1,T,,M,000.0,N,000.0,K,A*04
$GPGGA,235112.028,4738.9990,N,12207.0555,W,1,09,1.1,36.4,M,-18.1,M,,0000*5D
$GPGSA,A,3,20,25,31,11,01,14,22,12,32,,,,2.0,1.1,1.6*36
$GPGSV,3,1,12,32,66,302,42,01,54,275,37,31,54,138,37,14,42,059,46*7A
$GPGSV,3,2,12,11,40,236,27,20,28,296,28,22,16,112,24,25,12,074,34*71
$GPGSV,3,3,12,17,08,326,21,12,08,037,28,23,07,246,17,19,01,219,*76
$GPRMC,235112.028,A,4738.9990,N,12207.0555,W,000.0,181.1,251213,,,A*7D
$GPVTG,181.1,T,,M,000.0,N,000.0,K,A*04
$GPGGA,235113.028,4738.9990,N,12207.0555,W,1,09,1.1,36.4,M,-18.1,M,,0000*5C
$GPGSA,A,3,20,25,31,11,01,14,22,12,32,,,,2.0,1.1,1.6*36
$GPGSV,3,1,12,32,66,302,42,01,54,275,37,31,54,138,38,14,42,059,46*75
$GPGSV,3,2,12,11,40,236,27,20,28,296,27,22,16,112,24,25,12,074,34*7E
$GPGSV,3,3,12,17,08,326,21,12,08,037,29,23,07,246,17,19,01,219,*77
$GPRMC,235113.028,A,4738.9990,N,12207.0555,W,000.0,181.1,251213,,,A*7C
$GPVTG,181.1,T,,M,000.0,N,000.0,K,A*04
$GPGGA,235114.028,4738.9990,N,12207.0555,W,1,09,1.1,36.4,M,-18.1,M,,0000*5B
$GPGSA,A,3,20,25,31,11,01,14,22,12,32,,,,2.0,1.1,1.6*36
$GPGSV,3,1,12,32,66,302,42,01,54,275,37,31,54,138,37,14,42,059,46*7A
$GPGSV,3,2,12,11,40,236,26,20,28,296,26,22,16,112,25,25,12,073,34*78
$GPGSV,3,3,12,17,08,326,21,12,08,037,29,23,07,246,17,19,01,219,*77
$GPRMC,235114.028,A,4738.9990,N,12207.0555,W,000.0,181.1,251213,,,A*7B
$GPVTG,181.1,T,,M,000.0,N,000.0,K,A*04
$GPGGA,235115.028,4738.9990,N,12207.0555,W,1,09,1.1,36.4,M,-18.1,M,,0000*5A
$GPGSA,A,3,20,25,31,11,01,14,22,12,32,,,,2.0,1.1,1.6*36
$GPGSV,3,1,12,32,66,302,42,01,54,275,37,31,54,138,37,14,42,059,46*7A
$GPGSV,3,2,12,11,40,236,26,20,28,296,27,22,16,112,25,25,12,073,35*78
$GPGSV,3,3,12,17,08,326,21,12,08,037,29,23,07,246,16,19,01,219,*76
$GPRMC,235115.028,A,4738.9990,N,12207.0555,W,000.0,181.1,251213,,,A*7A
$GPVTG,181.1,T,,M,000.0,N,000.0,K,A*04
$GPGGA,235116.028,4738.9990,N,12207.0555,W,1,09,1.1,36.4,M,-18.1,M,,0000*59
$GPGSA,A,3,20,25,31,11,01,14,22,12,32,,,,2.0,1.1,1.6*36
$GPGSV,3,1,12,32,66,302,42,01,54,275,37,31,54,138,37,14,42,059,46*7A
$GPGSV,3,2,12,11,40,236,26,20,28,296,27,22,16,112,26,25,12,073,35*7B
$GPGSV,3,3,12,17,08,326,22,12,08,037,30,23,07,246,18,19,01,219,*73
$GPRMC,235116.028,A,4738.9990,N,12207.0555,W,000.0,181.1,251213,,,A*79
$GPVTG,181.1,T,,M,000.0,N,000.0,K,A*04
$GPGGA,235117.028,4738.9990,N,12207.0555,W,1,09,1.1,36.4,M,-18.1,M,,0000*58
$GPGSA,A,3,20,25,31,11,01,14,22,12,32,,,,2.0,1.1,1.6*36
$GPGSV,3,1,12,32,66,302,42,01,54,275,37,31,54,138,37,14,42,059,46*7A
$GPGSV,3,2,12,11,40,236,27,20,28,296,26,22,16,112,26,25,12,073,35*7B
$GPGSV,3,3,12,17,08,326,22,12,08,037,30,23,07,246,17,19,01,219,*7C
$GPRMC,235117.028,A,4738.9990,N,12207.0555,W,000.0,181.1,251213,,,A*78
$GPVTG,181.1,T,,M,000.0,N,000.0,K,A*04
$GPGGA,235118.028,4738.9990,N,12207.0555,W,1,09,1.1,36.4,M,-18.1,M,,0000*57
$GPGSA,A,3,20,25,31,11,01,14,22,12,32,,,,2.0,1.1,1.6*36
$GPGSV,3,1,12,32,66,302,42,01,54,275,37,31,54,138,37,14,42,059,45*79
$GPGSV,3,2,12,11,40,236,26,20,28,296,27,22,16,112,26,25,12,073,35*7B
$GPGSV,3,3,12,17,08,326,22,12,08,037,31,23,07,246,17,19,01,219,*7D
$GPRMC,235118.028,A,4738.9990,N,12207.0555,W,000.0,181.1,251213,,,A*77
$GPVTG,181.1,T,,M,000.0,N,000.0,K,A*04
$GPGGA,235119.028,4738.9990,N,12207.0555,W,1,09,1.1,36.4,M,-18.1,M,,0000*56
$GPGSA,A,3,20,25,31,11,01,14,22,12,32,,,,2.0,1.1,1.6*36
$GPGSV,3,1,12,32,66,302,42,01,54,275,37,31,54,138,36,14,42,059,45*78
$GPGSV,3,2,12,11,40,236,26,20,28,296,27,22,16,112,27,25,12,073,35*7A
$GPGSV,3,3,12,17,08,326,22,12,08,037,31,23,07,246,17,19,01,219,*7D
$GPRMC,235119.028,A,4738.9990,N,12207.0555,W,000.0,181.1,251213,,,A*76
$GPVTG,181.1,T,,M,000.0,N,000.0,K,A*04
$GPGGA,235120.028,4738.9990,N,12207.0555,W,1,09,1.1,36.4,M,-18.1,M,,0000*5C
$GPGSA,A,3,20,25,31,11,01,14,22,12,32,,,,2.0,1.1,1.6*36
$GPGSV,3,1,12,32,66,302,42,01,54,275,37,31,54,138,36,14,42,059,45*78
$GPGSV,3,2,12,11,40,236,26,20,28,296,27,22,16,112,27,25,12,073,35*7A
$GPGSV,3,3,12,17,08,326,22,12,08,037,31,23,07,246,18,19,01,219,*72
$GPRMC,235120.028,A,4738.9990,N,12207.0555,W,000.0,181.1,251213,,,A*7C
$GPVTG,181.1,T,,M,000.0,N,000.0,K,A*04
$GPGGA,235121.028,4738.9990,N,12207.0555,W,1,09,1.1,36.4,M,-18.1,M,,0000*5D
$GPGSA,A,3,20,25,31,11,01,14,22,12,32,,,,2.0,1.1,1.6*36
$GPGSV,3,1,12,32,66,302,42,01,54,275,37,31,54,138,36,14,42,059,45*78
$GPGSV,3,2,12,11,40,236,25,20,28,296,26,22,16,112,27,25,12,073,35*78
$GPGSV,3,3,12,17,08,326,21,12,08,037,30,23,07,246,18,19,01,219,*70
$GPRMC,235121.028,A,4738.9990,N,12207.0555,W,000.0,181.1,251213,,,A*7D
$GPVTG,181.1,T,,M,000.0,N,000.0,K,A*04
$GPGGA,235122.028,4738.9990,N,12207.0555,W,1,09,1.1,36.4,M,-18.1,M,,0000*5E
$GPGSA,A,3,20,25,31,11,01,14,22,12,32,,,,2.0,1.1,1.6*36
$GPGSV,3,1,12,32,66,302,42,01,54,275,37,31,54,138,36,14,42,059,45*78
$GPGSV,3,2,12,11,40,236,25,20,28,296,26,22,16,112,28,25,12,073,35*77
$GPGSV,3,3,12,17,08,326,21,12,08,037,30,23,07,246,18,19,01,219,*70
$GPRMC,235122.028,A,4738.9990,N,12207.0555,W,000.0,181.1,251213,,,A*7E
$GPVTG,181.1,T,,M,000.0,N,000.0,K,A*04
$GPGGA,235123.028,4738.9990,N,12207.0555,W,1,09,1.1,36.4,M,-18.1,M,,0000*5F
$GPGSA,A,3,20,25,31,11,01,14,22,12,32,,,,2.0,1.1,1.6*36
$GPGSV,3,1,12,32,66,302,42,01,54,275,37,31,54,138,36,14,42,059,45*78
$GPGSV,3,2,12,11,40,236,25,20,28,296,27,22,16,112,28,25,12,073,35*76
$GPGSV,3,3,12,17,08,326,21,12,08,037,31,23,07,246,17,19,01,219,*7E
$GPRMC,235123.028,A,4738.9990,N,12207.0555,W,000.0,181.1,251213,,,A*7F
$GPVTG,181.1,T,,M,000.0,N,000.0,K,A*04
$GPGGA,235124.028,4738.9990,N,12207.0555,W,1,09,1.1,36.4,M,-18.1,M,,0000*58
$GPGSA,A,3,20,25,31,11,01,14,22,12,32,,,,2.0,1.1,1.6*36
$GPGSV,3,1,12,32,66,302,42,01,54,275,37,31,54,138,36,14,42,059,45*78
$GPGSV,3,2,12,11,40,236,25,20,28,296,27,22,16,112,28,25,12,073,35*76
$GPGSV,3,3,12,17,08,326,21,12,08,037,31,23,07,246,17,19,01,219,*7E
$GPRMC,235124.028,A,4738.9990,N,12207.0555,W,000.0,181.1,251213,,,A*78
$GPVTG,181.1,T,,M,000.0,N,000.0,K,A*04
$GPGGA,235125.028,4738.9990,N,12207.0555,W,1,09,1.1,36.4,M,-18.1,M,,0000*59
$GPGSA,A,3,20,25,31,11,01,14,22,12,32,,,,2.0,1.1,1.6*36
$GPGSV,3,1,12,32,66,302,42,01,54,275,37,31,54,138,37,14,42,059,45*79
$GPGSV,3,2,12,11,40,236,26,20,28,296,28,22,16,112,29,25,12,073,35*7B
$GPGSV,3,3,12,17,08,326,20,12,08,037,31,23,07,246,17,19,01,219,*7F
$GPRMC,235125.028,A,4738.9990,N,12207.0555,W,000.0,181.1,251213,,,A*79
$GPVTG,181.1,T,,M,000.0,N,000.0,K,A*04
$GPGGA,235126.028,4738.9990,N,12207.0555,W,1,09,1.1,36.4,M,-18.1,M,,0000*5A
$GPGSA,A,3,20,25,31,11,01,14,22,12,32,,,,2.0,1.1,1.6*36
$GPGSV,3,1,12,32,66,302,42,01,54,275,37,31,54,138,37,14,42,059,45*79
$GPGSV,3,2,12,11,40,236,26,20,28,296,28,22,16,112,29,25,12,073,35*7B
$GPGSV,3,3,12,17,08,326,20,12,08,037,31,23,07,246,17,19,01,219,*7F
$GPRMC,235126.028,A,4738.9990,N,12207.0555,W,000.0,181.1,251213,,,A*7A
$GPVTG,181.1,T,,M,000.0,N,000.0,K,A*04
$GPGGA,235127.028,4738.9990,N,12207.0555,W,1,09,1.1,36.4,M,-18.1,M,,0000*5B
$GPGSA,A,3,20,25,31,11,01,14,22,12,32,,,,2.0,1.1,1.6*36
$GPGSV,3,1,12,32,66,302,42,01,54,275,38,31,54,138,37,14,42,059,45*76
$GPGSV,3,2,12,11,40,236,27,20,28,296,29,22,16,112,29,25,12,073,35*7B
$GPGSV,3,3,12,17,08,326,20,12,08,037,31,23,07,246,17,19,01,219,*7F
$GPRMC,235127.028,A,4738.9990,N,12207.0555,W,000.0,181.1,251213,,,A*7B
$GPVTG,181.1,T,,M,000.0,N,000.0,K,A*04
$GPGGA,235128.028,4738.9990,N,12207.0555,W,1,09,1.1,36.4,M,-18.1,M,,0000*54
$GPGSA,A,3,20,25,31,11,01,14,22,12,32,,,,2.0,1.1,1.6*36
$GPGSV,3,1,12,32,66,302,42,01,54,275,38,31,54,138,37,14,42,059,45*76
$GPGSV,3,2,12,11,40,236,27,20,28,296,29,22,16,112,30,25,12,073,35*73
$GPGSV,3,3,12,17,08,326,20,12,08,037,31,23,07,246,17,19,01,219,*7F
$GPRMC,235128.028,A,4738.9990,N,12207.0555,W,000.0,181.1,251213,,,A*74
$GPVTG,181.1,T,,M,000.0,N,000.0,K,A*04
$GPGGA,235129.028,4738.9990,N,12207.0555,W,1,09,1.1,36.4,M,-18.1,M,,0000*55
$GPGSA,A,3,20,25,31,11,01,14,22,12,32,,,,2.0,1.1,1.6*36
$GPGSV,3,1,12,32,66,302,42,01,54,275,38,31,54,138,38,14,42,059,45*79
$GPGSV,3,2,12,11,40,236,28,20,28,296,29,22,16,112,30,25,12,073,35*7C
$GPGSV,3,3,12,17,08,326,20,12,08,037,31,23,07,246,18,19,01,219,*70
$GPRMC,235129.028,A,4738.9990,N,12207.0555,W,000.0,181.1,251213,,,A*75
$GPVTG,181.1,T,,M,000.0,N,000.0,K,A*04
$GPGGA,235130.028,4738.9990,N,12207.0555,W,1,09,1.1,36.4,M,-18.1,M,,0000*5D
$GPGSA,A,3,20,25,31,11,01,14,22,12,32,,,,2.0,1.1,1.6*36
$GPGSV,3,1,12,32,66,302,42,01,54,275,38,31,54,138,38,14,42,059,45*79
$GPGSV,3,2,12,11,40,236,27,20,28,296,30,22,16,112,30,25,12,073,35*7B
$GPGSV,3,3,12,17,08,326,21,12,08,037,32,23,07,246,19,19,01,219,*73
$GPRMC,235130.028,A,4738.9990,N,12207.0555,W,000.0,181.1,251213,,,A*7D
$GPVTG,181.1,T,,M,000.0,N,000.0,K,A*04
$GPGGA,235131.028,4738.9990,N,12207.0555,W,1,09,1.1,36.4,M,-18.1,M,,0000*5C
$GPGSA,A,3,20,25,31,11,01,14,22,12,32,,,,2.0,1.1,1.6*36
$GPGSV,3,1,12,32,66,302,42,01,54,275,38,31,54,138,38,14,42,059,45*79
$GPGSV,3,2,12,11,40,236,28,20,28,296,30,22,16,112,31,25,12,073,35*75
$GPGSV,3,3,12,17,08,326,23,12,08,037,32,23,07,246,20,19,01,219,*7B
$GPRMC,235131.028,A,4738.9990,N,12207.0555,W,000.0,181.1,251213,,,A*7C
$GPVTG,181.1,T,,M,000.0,N,000.0,K,A*04
$GPGGA,235132.028,4738.9990,N,12207.0555,W,1,09,1.1,36.4,M,-18.1,M,,0000*5F
$GPGSA,A,3,20,25,31,11,01,14,22,12,32,,,,2.0,1.1,1.6*36
$GPGSV,3,1,12,32,66,302,42,01,54,275,38,31,54,138,38,14,42,059,45*79
$GPGSV,3,2,12,11,40,236,27,20,28,296,30,22,16,112,30,25,12,073,35*7B
$GPGSV,3,3,12,17,08,326,23,12,08,037,32,23,07,246,20,19,01,219,*7B
$GPRMC,235132.028,A,4738.9990,N,12207.0555,W,000.0,181.1,251213,,,A*7F
$GPVTG,181.1,T,,M,000.0,N,000.0,K,A*04
$GPGGA,235133.028,4738.9990,N,12207.0555,W,1,09,1.1,36.4,M,-18.1,M,,0000*5E
$GPGSA,A,3,20,25,31,11,01,14,22,12,32,,,,2.0,1.1,1.6*36
$GPGSV,3,1,12,32,66,302,42,01,54,275,38,31,54,138,38,14,42,059,44*78
$GPGSV,3,2,12,11,40,236,28,20,28,296,30,22,16,112,30,25,12,073,35*74
$GPGSV,3,3,12,17,08,326,23,12,08,037,31,23,07,246,20,19,01,219,*78
$GPRMC,235133.028,A,4738.9990,N,12207.0555,W,000.0,181.1,251213,,,A*7E
$GPVTG,181.1,T,,M,000.0,N,000.0,K,A*04
$GPGGA,235134.028,4738.9990,N,12207.0555,W,1,09,1.1,36.4,M,-18.1,M,,0000*59
$GPGSA,A,3,20,25,31,11,01,14,22,12,32,,,,2.0,1.1,1.6*36
$GPGSV,3,1,12,32,66,302,42,01,54,275,38,31,54,138,38,14,42,059,44*78
$GPGSV,3,2,12,11,40,236,27,20,28,296,30,22,16,112,30,25,12,073,34*7A
$GPGSV,3,3,12,17,08,326,25,12,08,037,31,23,07,246,20,19,01,219,*7E
$GPRMC,235134.028,A,4738.9990,N,12207.0555,W,000.0,181.1,251213,,,A*79
$GPVTG,181.1,T,,M,000.0,N,000.0,K,A*04
$GPGGA,235135.028,4738.9990,N,12207.0555,W,1,09,1.1,36.4,M,-18.1,M,,0000*58
$GPGSA,A,3,20,25,31,11,01,14,22,12,32,,,,2.0,1.1,1.6*36
$GPGSV,3,1,12,32,66,302,42,01,54,275,38,31,54,138,38,14,42,059,44*78
$GPGSV,3,2,12,11,40,236,27,20,28,296,30,22,16,112,30,25,12,073,34*7A
$GPGSV,3,3,12,17,08,326,25,12,08,037,31,23,07,246,21,19,01,219,*7F
$GPRMC,235135.028,A,4738.9990,N,12207.0555,W,000.0,181.1,251213,,,A*78
$GPVTG,181.1,T,,M,000.0,N,000.0,K,A*04
$GPGGA,235136.028,4738.9990,N,12207.0555,W,1,09,1.1,36.4,M,-18.1,M,,0000*5B
$GPGSA,A,3,20,25,31,11,01,14,22,12,32,,,,2.0,1.1,1.6*36
$GPGSV,3,1,12,32,66,302,42,01,54,275,38,31,54,138,38,14,42,059,44*78
$GPGSV,3,2,12,11,40,236,26,20,28,296,31,22,16,112,30,25,12,073,34*7A
$GPGSV,3,3,12,17,08,326,25,12,08,037,31,23,07,246,21,19,01,219,*7F
$GPRMC,235136.028,A,4738.9990,N,12207.0555,W,000.0,181.1,251213,,,A*7B
$GPVTG,181.1,T,,M,000.0,N,000.0,K,A*04
$GPGGA,235137.028,4738.9990,N,12207.0555,W,1,09,1.1,36.4,M,-18.1,M,,0000*5A
$GPGSA,A,3,20,25,31,11,01,14,22,12,32,,,,2.0,1.1,1.6*36
$GPGSV,3,1,12,32,66,302,43,01,54,275,38,31,54,138,38,14,42,059,44*79
$GPGSV,3,2,12,11,40,236,27,20,28,296,31,22,16,112,30,25,12,073,34*7B
$GPGSV,3,3,12,17,08,326,26,12,08,037,31,23,07,246,22,19,01,219,*7F
$GPRMC,235137.028,A,4738.9990,N,12207.0555,W,000.0,181.1,251213,,,A*7A
$GPVTG,181.1,T,,M,000.0,N,000.0,K,A*04
$GPGGA,235138.028,4738.9990,N,12207.0555,W,1,09,1.1,36.4,M,-18.1,M,,0000*55
$GPGSA,A,3,20,25,31,11,01,14,22,12,32,,,,2.0,1.1,1.6*36
$GPGSV,3,1,12,32,66,302,43,01,54,275,38,31,54,138,38,14,42,059,44*79
$GPGSV,3,2,12,11,40,236,27,20,28,296,31,22,16,112,30,25,12,073,34*7B
$GPGSV,3,3,12,17,08,326,25,12,08,037,30,23,07,246,22,19,01,219,*7D
$GPRMC,235138.028,A,4738.9990,N,12207.0555,W,000.0,181.1,251213,,,A*75
$GPVTG,181.1,T,,M,000.0,N,000.0,K,A*04
$GPGGA,235139.028,4738.9990,N,12207.0555,W,1,09,1.1,36.4,M,-18.1,M,,0000*54
$GPGSA,A,3,20,25,31,11,01,14,22,12,32,,,,2.0,1.1,1.6*36
$GPGSV,3,1,12,32,66,302,43,01,54,275,38,31,54,138,38,14,42,059,44*79
$GPGSV,3,2,12,11,40,236,28,20,28,296,32,22,16,112,30,25,12,073,34*77
$GPGSV,3,3,12,17,08,326,26,12,08,037,30,23,07,246,22,19,01,219,*7E
$GPRMC,235139.028,A,4738.9990,N,12207.0555,W,000.0,181.1,251213,,,A*74
$GPVTG,181.1,T,,M,000.0,N,000.0,K,A*04
$GPGGA,235140.028,4738.9990,N,12207.0555,W,1,09,1.1,36.4,M,-18.1,M,,0000*5A
$GPGSA,A,3,20,25,31,11,01,14,22,12,32,,,,2.0,1.1,1.6*36
$GPGSV,3,1,12,32,66,302,43,01,54,275,38,31,54,138,38,14,42,059,44*79
$GPGSV,3,2,12,11,40,236,28,20,28,296,32,22,16,112,30,25,12,073,34*77
$GPGSV,3,3,12,17,08,326,26,12,08,037,30,23,07,246,22,19,01,219,*7E
$GPRMC,235140.028,A,4738.9990,N,12207.0555,W,000.0,181.1,251213,,,A*7A
$GPVTG,181.1,T,,M,000.0,N,000.0,K,A*04
$GPGGA,235141.028,4738.9990,N,12207.0555,W,1,09,1.1,36.4,M,-18.1,M,,0000*5B
$GPGSA,A,3,20,25,31,11,01,14,22,12,32,,,,2.0,1.1,1.6*36
$GPGSV,3,1,12,32,66,302,43,01,54,275,38,31,54,138,38,14,42,059,45*78
$GPGSV,3,2,12,11,40,236,28,20,28,296,32,22,16,112,30,25,12,073,34*77
$GPGSV,3,3,12,17,08,326,27,12,08,037,30,23,07,246,22,19,01,219,*7F
$GPRMC,235141.028,A,4738.9990,N,12207.0555,W,000.0,181.1,251213,,,A*7B
$GPVTG,181.1,T,,M,000.0,N,000.0,K,A*04
$GPGGA,235142.028,4738.9990,N,12207.0555,W,1,09,1.1,36.4,M,-18.1,M,,0000*58
$GPGSA,A,3,20,25,31,11,01,14,22,12,32,,,,2.0,1.1,1.6*36
$GPGSV,3,1,12,32,66,302,43,01,54,275,38,31,54,138,38,14,42,059,45*78
$GPGSV,3,2,12,11,40,236,28,20,28,296,33,22,16,112,29,25,12,073,34*7E
$GPGSV,3,3,12,17,08,326,27,12,08,037,29,23,07,246,22,19,01,219,*77
$GPRMC,235142.028,A,4738.9990,N,12207.0555,W,000.0,181.1,251213,,,A*78
$GPVTG,181.1,T,,M,000.0,N,000.0,K,A*04
$GPGGA,235143.028,4738.9990,N,12207.0555,W,1,09,1.1,36.4,M,-18.1,M,,0000*59
$GPGSA,A,3,20,25,31,11,01,14,22,12,32,,,,2.0,1.1,1.6*36
$GPGSV,3,1,12,32,66,302,43,01,54,275,38,31,54,138,38,14,42,059,45*78
$GPGSV,3,2,12,11,40,236,28,20,28,296,33,22,16,112,29,25,12,073,34*7E
$GPGSV,3,3,12,17,08,326,27,12,08,037,29,23,07,246,22,19,01,219,*77
$GPRMC,235143.028,A,4738.9990,N,12207.0555,W,000.0,181.1,251213,,,A*79
$GPVTG,181.1,T,,M,000.0,N,000.0,K,A*04
$GPGGA,235144.028,4738.9990,N,12207.0555,W,1,09,1.1,36.4,M,-18.1,M,,0000*5E
$GPGSA,A,3,20,25,31,11,01,14,22,12,32,,,,2.0,1.1,1.6*36
$GPGSV,3,1,12,32,66,302,43,01,54,275,39,31,54,138,39,14,42,059,45*78
$GPGSV,3,2,12,11,40,236,29,20,28,296,33,22,16,112,29,25,12,073,35*7E
$GPGSV,3,3,12,17,08,326,27,12,08,037,29,23,07,246,22,19,01,219,*77
$GPRMC,235144.028,A,4738.9990,N,12207.0555,W,000.0,181.1,251213,,,A*7E
$GPVTG,181.1,T,,M,000.0,N,000.0,K,A*04
$GPGGA,235145.028,4738.9990,N,12207.0555,W,1,09,1.1,36.4,M,-18.1,M,,0000*5F
$GPGSA,A,3,20,25,31,11,01,14,22,12,32,,,,2.0,1.1,1.6*36
$GPGSV,3,1,12,32,66,302,43,01,54,275,39,31,54,138,39,14,42,059,45*78
$GPGSV,3,2,12,11,40,236,29,20,28,296,33,22,16,112,29,25,12,073,34*7F
$GPGSV,3,3,12,17,08,326,27,12,08,037,29,23,07,246,22,19,01,219,*77
$GPRMC,235145.028,A,4738.9990,N,12207.0555,W,000.0,181.1,251213,,,A*7F
$GPVTG,181.1,T,,M,000.0,N,000.0,K,A*04
$GPGGA,235146.028,4738.9990,N,12207.0555,W,1,09,1.1,36.4,M,-18.1,M,,0000*5C
$GPGSA,A,3,20,25,31,11,01,14,22,12,32,,,,2.0,1.1,1.6*36
$GPGSV,3,1,12,32,66,302,43,01,54,275,39,31,54,138,39,14,42,059,45*78
$GPGSV,3,2,12,11,40,236,29,20,28,296,33,22,16,112,29,25,12,073,35*7E
$GPGSV,3,3,12,17,08,326,28,12,08,037,29,23,07,246,22,19,01,219,*78
$GPRMC,235146.028,A,4738.9990,N,12207.0555,W,000.0,181.1,251213,,,A*7C
$GPVTG,181.1,T,,M,000.0,N,000.0,K,A*04
$GPGGA,235147.028,4738.9990,N,12207.0555,W,1,09,1.1,36.4,M,-18.1,M,,0000*5D
$GPGSA,A,3,20,25,31,11,01,14,22,12,32,,,,2.0,1.1,1.6*36
$GPGSV,3,1,12,32,66,302,43,01,54,275,39,31,54,138,39,14,42,059,45*78
$GPGSV,3,2,12,11,40,236,29,20,28,296,34,22,16,112,29,25,12,073,34*78
$GPGSV,3,3,12,17,08,326,27,12,08,037,28,23,07,246,21,19,01,219,*75
$GPRMC,235147.028,A,4738.9990,N,12207.0555,W,000.0,181.1,251213,,,A*7D
$GPVTG,181.1,T,,M,000.0,N,000.0,K,A*04
$GPGGA,235148.028,4738.9990,N,12207.0555,W,1,09,1.1,36.4,M,-18.1,M,,0000*52
$GPGSA,A,3,20,25,31,11,01,14,22,12,32,,,,2.0,1.1,1.6*36
$GPGSV,3,1,12,32,66,302,43,01,54,275,39,31,54,138,39,14,42,059,45*78
$GPGSV,3,2,12,11,40,236,29,20,28,296,34,22,16,112,30,25,12,073,34*70
$GPGSV,3,3,12,17,08,326,28,12,08,037,29,23,07,246,21,19,01,219,*7B
$GPRMC,235148.028,A,4738.9990,N,12207.0555,W,000.0,181.1,251213,,,A*72
$GPVTG,181.1,T,,M,000.0,N,000.0,K,A*04
$GPGGA,235149.028,4738.9990,N,12207.0555,W,1,09,1.1,36.4,M,-18.1,M,,0000*53
$GPGSA,A,3,20,25,31,11,01,14,22,12,32,,,,2.0,1.1,1.6*36
$GPGSV,3,1,12,32,66,302,43,01,54,275,39,31,54,138,39,14,42,059,45*78
$GPGSV,3,2,12,11,40,236,30,20,28,296,34,22,16,112,30,25,12,073,34*78
$GPGSV,3,3,12,17,08,326,27,12,08,037,27,23,07,246,21,19,01,219,*7A
$GPRMC,235149.028,A,4738.9990,N,12207.0555,W,000.0,181.1,251213,,,A*73
$GPVTG,181.1,T,,M,000.0,N,000.0,K,A*04
$GPGGA,235150.028,4738.9990,N,12207.0555,W,1,09,1.1,36.4,M,-18.1,M,,0000*5B
$GPGSA,A,3,20,25,31,11,01,14,22,12,32,,,,2.0,1.1,1.6*36
$GPGSV,3,1,12,32,66,302,43,01,54,275,39,31,54,138,39,14,42,059,45*78
$GPGSV,3,2,12,11,40,236,29,20,28,296,34,22,16,112,30,25,12,073,34*70
$GPGSV,3,3,12,17,08,326,27,12,08,037,26,23,07,246,20,19,01,219,*7A
$GPRMC,235150.028,A,4738.9990,N,12207.0555,W,000.0,181.1,251213,,,A*7B
$GPVTG,181.1,T,,M,000.0,N,000.0,K,A*04
$GPGGA,235151.028,4738.9990,N,12207.0555,W,1,09,1.1,36.4,M,-18.1,M,,0000*5A
$GPGSA,A,3,20,25,31,11,01,14,22,12,32,,,,2.0,1.1,1.6*36
$GPGSV,3,1,12,32,67,302,43,01,54,275,39,31,54,138,39,14,42,059,45*79
$GPGSV,3,2,12,11,40,236,30,20,28,296,33,22,16,112,30,25,12,073,34*7F
$GPGSV,3,3,12,17,08,326,27,12,08,037,27,23,07,246,21,19,01,219,*7A
$GPRMC,235151.028,A,4738.9990,N,12207.0555,W,000.0,181.1,251213,,,A*7A
$GPVTG,181.1,T,,M,000.0,N,000.0,K,A*04
$GPGGA,235152.028,4738.9990,N,12207.0555,W,1,09,1.1,36.4,M,-18.1,M,,0000*59
$GPGSA,A,3,20,25,31,11,01,14,22,12,32,,,,2.0,1.1,1.6*36
$GPGSV,3,1,12,32,67,302,43,01,54,275,39,31,54,138,39,14,42,059,45*79
$GPGSV,3,2,12,11,40,236,29,20,28,296,34,22,16,112,29,25,12,073,34*78
$GPGSV,3,3,12,17,08,326,27,12,08,037,26,23,07,246,21,19,01,219,*7B
$GPRMC,235152.028,A,4738.9990,N,12207.0555,W,000.0,181.1,251213,,,A*79
$GPVTG,181.1,T,,M,000.0,N,000.0,K,A*04
$GPGGA,235153.028,4738.9990,N,12207.0555,W,1,09,1.1,36.4,M,-18.1,M,,0000*58
$GPGSA,A,3,20,25,31,11,01,14,22,12,32,,,,2.0,1.1,1.6*36
$GPGSV,3,1,12,32,67,302,43,01,54,275,39,31,54,138,39,14,42,059,45*79
$GPGSV,3,2,12,11,40,236,30,20,28,296,34,22,16,112,29,25,12,073,34*70
$GPGSV,3,3,12,17,08,326,27,12,08,037,25,23,07,246,20,19,01,219,*79
$GPRMC,235153.028,A,4738.9990,N,12207.0555,W,000.0,181.1,251213,,,A*78
$GPVTG,181.1,T,,M,000.0,N,000.0,K,A*04
$GPGGA,235154.028,4738.9990,N,12207.0555,W,1,09,1.1,36.4,M,-18.1,M,,0000*5F
$GPGSA,A,3,20,25,31,11,01,14,22,12,32,,,,2.0,1.1,1.6*36
$GPGSV,3,1,12,32,67,302,43,01,54,275,39,31,54,138,39,14,42,059,45*79
$GPGSV,3,2,12,11,40,236,30,20,28,296,34,22,16,112,29,25,12,073,34*70
$GPGSV,3,3,12,17,08,326,26,12,08,037,25,23,07,246,20,19,01,219,*78
$GPRMC,235154.028,A,4738.9990,N,12207.0555,W,000.0,181.1,251213,,,A*7F
$GPVTG,181.1,T,,M,000.0,N,000.0,K,A*04
$GPGGA,235155.028,4738.9990,N,12207.0555,W,1,09,1.1,36.4,M,-18.1,M,,0000*5E
$GPGSA,A,3,20,25,31,11,01,14,22,12,32,,,,2.0,1.1,1.6*36
$GPGSV,3,1,12,32,67,302,42,01,54,275,39,31,54,138,39,14,42,059,45*78
$GPGSV,3,2,12,11,40,236,31,20,28,296,33,22,16,112,29,25,12,073,34*76
$GPGSV,3,3,12,17,08,326,25,12,08,037,24,23,07,246,19,19,01,219,*70
$GPRMC,235155.028,A,4738.9990,N,12207.0555,W,000.0,181.1,251213,,,A*7E
$GPVTG,181.1,T,,M,000.0,N,000.0,K,A*04
$GPGGA,235156.028,4738.9990,N,12207.0555,W,1,09,1.1,36.4,M,-18.1,M,,0000*5D
$GPGSA,A,3,20,25,31,11,01,14,22,12,32,,,,2.0,1.1,1.6*36
$GPGSV,3,1,12,32,67,302,42,01,54,275,39,31,54,138,39,14,42,059,45*78
$GPGSV,3,2,12,11,40,236,31,20,28,296,32,22,16,112,30,25,12,073,34*7F
$GPGSV,3,3,12,17,08,326,25,12,08,037,24,23,07,246,19,19,01,219,*70
$GPRMC,235156.028,A,4738.9990,N,12207.0555,W,000.0,181.1,251213,,,A*7D
$GPVTG,181.1,T,,M,000.0,N,000.0,K,A*04
$GPGGA,235157.028,4738.9990,N,12207.0555,W,1,09,1.1,36.4,M,-18.1,M,,0000*5C
$GPGSA,A,3,20,25,31,11,01,14,22,12,32,,,,2.0,1.1,1.6*36
$GPGSV,3,1,12,32,67,302,43,01,54,275,39,31,54,138,39,14,42,059,45*79
$GPGSV,3,2,12,11,40,236,32,20,28,296,33,22,16,112,29,25,12,073,34*75
$GPGSV,3,3,12,17,08,326,25,12,08,037,24,23,07,246,19,19,01,219,*70
$GPRMC,235157.028,A,4738.9990,N,12207.0555,W,000.0,181.1,251213,,,A*7C
$GPVTG,181.1,T,,M,000.0,N,000.0,K,A*04
$GPGGA,235158.028,4738.9990,N,12207.0555,W,1,09,1.1,36.4,M,-18.1,M,,0000*53
$GPGSA,A,3,20,25,31,11,01,14,22,12,32,,,,2.0,1.1,1.6*36
$GPGSV,3,1,12,32,67,302,43,01,54,275,39,31,54,138,39,14,42,059,45*79
$GPGSV,3,2,12,11,40,236,32,20,28,296,32,22,16,112,29,25,12,073,33*73
$GPGSV,3,3,12,17,08,326,25,12,08,037,24,23,07,246,19,19,01,219,*70
$GPRMC,235158.028,A,4738.9990,N,12207.0555,W,000.0,181.1,251213,,,A*73
$GPVTG,181.1,T,,M,000.0,N,000.0,K,A*04
$GPGGA,235159.028,4738.9990,N,12207.0555,W,1,09,1.1,36.4,M,-18.1,M,,0000*52
$GPGSA,A,3,20,25,31,11,01,14,22,12,32,,,,2.0,1.1,1.6*36
$GPGSV,3,1,12,32,67,302,42,01,54,275,39,31,54,138,39,14,42,059,45*78
$GPGSV,3,2,12,11,40,236,32,20,28,296,32,22,16,112,29,25,12,073,33*73
$GPGSV,3,3,12,17,08,326,25,12,08,037,23,23,07,246,19,19,01,219,*77
$GPRMC,235159.028,A,4738.9990,N,12207.0555,W,000.0,181.1,251213,,,A*72
$GPVTG,181.1,T,,M,000.0,N,000.0,K,A*04
$GPGGA,235200.028,4738.9990,N,12207.0555,W,1,09,1.1,36.4,M,-18.1,M,,0000*5D
$GPGSA,A,3,20,25,31,11,01,14,22,12,32,,,,2.0,1.1,1.6*36
$GPGSV,3,1,12,32,67,302,43,01,54,275,39,31,54,138,39,14,42,059,45*79
$GPGSV,3,2,12,11,40,236,32,20,28,296,31,22,16,112,29,25,12,073,33*70
$GPGSV,3,3,12,17,08,326,25,12,08,037,24,23,07,246,19,19,01,219,*70
$GPRMC,235200.028,A,4738.9990,N,12207.0555,W,000.0,181.1,251213,,,A*7D
$GPVTG,181.1,T,,M,000.0,N,000.0,K,A*04
$GPGGA,235201.028,4738.9990,N,12207.0555,W,1,09,1.1,36.4,M,-18.1,M,,0000*5C
$GPGSA,A,3,20,25,31,11,01,14,22,12,32,,,,2.0,1.1,1.6*36
$GPGSV,3,1,12,32,67,302,43,01,54,275,39,31,54,138,39,14,42,059,44*78
$GPGSV,3,2,12,11,40,236,32,20,28,296,31,22,16,112,29,25,12,073,33*70
$GPGSV,3,3,12,17,08,326,24,12,08,037,24,23,07,246,18,19,01,219,*70
$GPRMC,235201.028,A,4738.9990,N,12207.0555,W,000.0,181.1,251213,,,A*7C
$GPVTG,181.1,T,,M,000.0,N,000.0,K,A*04
$GPGGA,235202.028,4738.9990,N,12207.0555,W,1,09,1.1,36.4,M,-18.1,M,,0000*5F
$GPGSA,A,3,20,25,31,11,01,14,22,12,32,,,,2.0,1.1,1.6*36
$GPGSV,3,1,12,32,67,302,43,01,54,275,39,31,54,138,40,14,42,059,44*76
$GPGSV,3,2,12,11,40,236,32,20,28,296,30,22,16,112,29,25,12,073,33*71
$GPGSV,3,3,12,17,08,326,24,12,08,037,25,23,07,246,18,19,01,219,*71
$GPRMC,235202.028,A,4738.9990,N,12207.0555,W,000.0,181.1,251213,,,A*7F
$GPVTG,181.1,T,,M,000.0,N,000.0,K,A*04
$GPGGA,235203.028,4738.9990,N,12207.0555,W,1,09,1.1,36.4,M,-18.1,M,,0000*5E
$GPGSA,A,3,20,25,31,11,01,14,22,12,32,,,,2.0,1.1,1.6*36
$GPGSV,3,1,12,32,67,302,43,01,54,275,39,31,54,138,40,14,42,059,44*76
$GPGSV,3,2,12,11,40,236,31,20,28,296,30,22,16,112,28,25,12,073,32*72
$GPGSV,3,3,12,17,08,326,24,12,08,037,25,23,07,246,18,19,01,219,*71
$GPRMC,235203.028,A,4738.9990,N,12207.0555,W,000.0,181.1,251213,,,A*7E
$GPVTG,181.1,T,,M,000.0,N,000.0,K,A*04
$GPGGA,235204.028,4738.9990,N,12207.0555,W,1,09,1.1,36.4,M,-18.1,M,,0000*59
$GPGSA,A,3,20,25,31,11,01,14,22,12,32,,,,2.0,1.1,1.6*36
$GPGSV,3,1,12,32,67,302,43,01,54,275,39,31,54,138,40,14,42,059,44*76
$GPGSV,3,2,12,11,40,236,30,20,28,296,29,22,16,112,28,25,12,073,32*7B
$GPGSV,3,3,12,17,08,326,24,12,08,037,26,23,07,246,17,19,01,219,*7D
$GPRMC,235204.028,A,4738.9990,N,12207.0555,W,000.0,181.1,251213,,,A*79
$GPVTG,181.1,T,,M,000.0,N,000.0,K,A*04
$GPGGA,235205.028,4738.9990,N,12207.0555,W,1,09,1.1,36.4,M,-18.1,M,,0000*58
$GPGSA,A,3,20,25,31,11,01,14,22,12,32,,,,2.0,1.1,1.6*36
$GPGSV,3,1,12,32,67,302,43,01,54,275,39,31,54,138,40,14,42,059,44*76
$GPGSV,3,2,12,11,40,236,29,20,28,296,29,22,16,112,28,25,12,073,31*70
$GPGSV,3,3,12,17,08,326,24,12,08,037,27,23,07,246,17,19,01,219,*7C
$GPRMC,235205.028,A,4738.9990,N,12207.0555,W,000.0,181.1,251213,,,A*78
$GPVTG,181.1,T,,M,000.0,N,000.0,K,A*04
$GPGGA,235206.028,4738.9990,N,12207.0555,W,1,09,1.1,36.4,M,-18.1,M,,0000*5B
$GPGSA,A,3,20,25,31,11,01,14,22,12,32,,,,2.0,1.1,1.6*36
$GPGSV,3,1,12,32,67,302,43,01,54,275,39,31,54,138,40,14,42,059,44*76
$GPGSV,3,2,12,11,40,236,30,20,28,296,27,22,16,112,29,25,12,073,31*77
$GPGSV,3,3,12,17,08,326,24,12,08,037,28,23,07,246,17,19,01,219,*73
$GPRMC,235206.028,A,4738.9990,N,12207.0555,W,000.0,181.1,251213,,,A*7B
$GPVTG,181.1,T,,M,000.0,N,000.0,K,A*04
$GPGGA,235207.028,4738.9990,N,12207.0555,W,1,09,1.1,36.4,M,-18.1,M,,0000*5A
$GPGSA,A,3,20,25,31,11,01,14,22,12,32,,,,2.0,1.1,1.6*36
$GPGSV,3,1,12,32,67,302,43,01,54,275,39,31,54,138,40,14,42,059,44*76
$GPGSV,3,2,12,11,40,236,30,20,28,296,28,22,16,112,29,25,12,073,31*78
$GPGSV,3,3,12,17,08,326,24,12,08,037,27,23,07,246,16,19,01,219,*7D
$GPRMC,235207.028,A,4738.9990,N,12207.0555,W,000.0,181.1,251213,,,A*7A
$GPVTG,181.1,T,,M,000.0,N,000.0,K,A*04
$GPGGA,235208.028,4738.9990,N,12207.0555,W,1,09,1.1,36.4,M,-18.1,M,,0000*55
$GPGSA,A,3,20,25,31,11,01,14,22,12,32,,,,2.0,1.1,1.6*36
$GPGSV,3,1,12,32,67,302,43,01,54,275,39,31,54,138,40,14,42,059,44*76
$GPGSV,3,2,12,11,40,236,31,20,28,296,26,22,16,112,28,25,12,073,30*77
$GPGSV,3,3,12,17,08,326,24,12,08,037,28,23,07,246,16,19,01,219,*72
$GPRMC,235208.028,A,4738.9990,N,12207.0555,W,000.0,181.1,251213,,,A*75
$GPVTG,181.1,T,,M,000.0,N,000.0,K,A*04
$GPGGA,235209.028,4738.9990,N,12207.0555,W,1,09,1.1,36.4,M,-18.1,M,,0000*54
$GPGSA,A,3,20,25,31,11,01,14,22,12,32,,,,2.0,1.1,1.6*36
$GPGSV,3,1,12,32,67,302,43,01,54,275,39,31,54,138,40,14,42,059,44*76
$GPGSV,3,2,12,11,40,236,30,20,28,296,27,22,16,112,28,25,12,073,31*76
$GPGSV,3,3,12,17,08,326,24,12,08,037,29,23,07,246,16,19,01,219,*73
$GPRMC,235209.028,A,4738.9990,N,12207.0555,W,000.0,181.1,251213,,,A*74
$GPVTG,181.1,T,,M,000.0,N,000.0,K,A*04
$GPGGA,235210.028,4738.9990,N,12207.0555,W,1,09,1.1,36.4,M,-18.1,M,,0000*5C
$GPGSA,A,3,20,25,31,11,01,14,22,12,32,,,,2.0,1.1,1.6*36
$GPGSV,3,1,12,32,67,302,43,01,54,275,39,31,54,138,40,14,42,059,44*76
$GPGSV,3,2,12,11,40,236,30,20,28,296,27,22,16,112,28,25,12,073,30*77
$GPGSV,3,3,12,17,08,326,24,12,08,037,28,23,07,246,16,19,00,219,*73
$GPRMC,235210.028,A,4738.9990,N,12207.0555,W,000.0,181.1,251213,,,A*7C
$GPVTG,181.1,T,,M,000.0,N,000.0,K,A*04
$GPGGA,235211.028,4738.9990,N,12207.0555,W,1,09,1.1,36.4,M,-18.1,M,,0000*5D
$GPGSA,A,3,20,25,31,11,01,14,22,12,32,,,,2.0,1.1,1.6*36
$GPGSV,3,1,12,32,67,302,43,01,54,275,39,31,54,138,40,14,42,059,44*76
$GPGSV,3,2,12,11,40,236,30,20,29,296,27,22,16,112,28,25,12,073,29*7E
$GPGSV,3,3,12,17,08,326,24,12,08,037,28,23,07,246,16,19,00,219,*73
$GPRMC,235211.028,A,4738.9990,N,12207.0555,W,000.0,181.1,251213,,,A*7D
$GPVTG,181.1,T,,M,000.0,N,000.0,K,A*04
$GPGGA,235212.028,4738.9990,N,12207.0555,W,1,09,1.1,36.4,M,-18.1,M,,0000*5E
$GPGSA,A,3,20,25,31,11,01,14,22,12,32,,,,2.0,1.1,1.6*36
$GPGSV,3,1,12,32,67,302,43,01,54,275,39,31,54,138,40,14,42,059,44*76
$GPGSV,3,2,12,11,40,236,30,20,29,296,27,22,16,112,27,25,12,073,28*70
$GPGSV,3,3,12,17,08,326,23,12,08,037,29,23,07,246,18,19,00,219,*7B
$GPRMC,235212.028,A,4738.9990,N,12207.0555,W,000.0,181.1,251213,,,A*7E
$GPVTG,181.1,T,,M,000.0,N,000.0,K,A*04
$GPGGA,235213.028,4738.9990,N,12207.0555,W,1,09,1.1,36.4,M,-18.1,M,,0000*5F
$GPGSA,A,3,20,25,31,11,01,14,22,12,32,,,,2.0,1.1,1.6*36
$GPGSV,3,1,12,32,67,302,43,01,54,275,39,31,54,138,40,14,42,059,44*76
$GPGSV,3,2,12,11,40,236,30,20,29,296,28,22,16,112,28,25,12,073,28*70
$GPGSV,3,3,12,17,08,326,23,12,08,037,29,23,07,246,19,19,00,219,*7A
$GPRMC,235213.028,A,4738.9990,N,12207.0555,W,000.0,181.1,251213,,,A*7F
$GPVTG,181.1,T,,M,000.0,N,000.0,K,A*04
$GPGGA,235214.028,4738.9990,N,12207.0555,W,1,09,1.1,36.4,M,-18.1,M,,0000*58
$GPGSA,A,3,20,25,31,11,01,14,22,12,32,,,,2.0,1.1,1.6*36
$GPGSV,3,1,12,32,67,302,43,01,54,275,39,31,54,138,40,14,42,059,44*76
$GPGSV,3,2,12,11,40,236,30,20,29,296,29,22,16,112,28,25,12,073,28*71
$GPGSV,3,3,12,17,08,326,23,12,08,037,28,23,07,246,19,19,00,219,*7B
$GPRMC,235214.028,A,4738.9990,N,12207.0555,W,000.0,181.1,251213,,,A*78
$GPVTG,181.1,T,,M,000.0,N,000.0,K,A*04
$GPGGA,235215.028,4738.9990,N,12207.0555,W,1,09,1.1,36.4,M,-18.1,M,,0000*59
$GPGSA,A,3,20,25,31,11,01,14,22,12,32,,,,2.0,1.1,1.6*36
$GPGSV,3,1,12,32,67,302,43,01,54,275,39,31,54,138,40,14,42,059,44*76
$GPGSV,3,2,12,11,40,236,30,20,29,296,29,22,16,112,27,25,12,073,28*7E
$GPGSV,3,3,12,17,08,326,23,12,08,037,29,23,07,246,19,19,00,219,*7A
$GPRMC,235215.028,A,4738.9990,N,12207.0555,W,000.0,181.1,251213,,,A*79
$GPVTG,181.1,T,,M,000.0,N,000.0,K,A*04
$GPGGA,235216.028,4738.9990,N,12207.0555,W,1,09,1.1,36.4,M,-18.1,M,,0000*5A
$GPGSA,A,3,20,25,31,11,01,14,22,12,32,,,,2.0,1.1,1.6*36
$GPGSV,3,1,12,32,67,302,43,01,54,275,39,31,54,138,40,14,42,059,44*76
$GPGSV,3,2,12,11,40,236,30,20,29,296,29,22,16,112,27,25,12,073,27*71
$GPGSV,3,3,12,17,08,326,23,12,08,037,29,23,07,246,19,19,00,219,*7A
$GPRMC,235216.028,A,4738.9990,N,12207.0555,W,000.0,181.1,251213,,,A*7A
$GPVTG,181.1,T,,M,000.0,N,000.0,K,A*04
$GPGGA,235217.028,4738.9990,N,12207.0555,W,1,09,1.1,36.4,M,-18.1,M,,0000*5B
$GPGSA,A,3,20,25,31,11,01,14,22,12,32,,,,2.0,1.1,1.6*36
$GPGSV,3,1,12,32,67,302,43,01,54,275,39,31,54,138,40,14,42,059,44*76
$GPGSV,3,2,12,11,40,236,31,20,29,296,30,22,16,112,26,25,12,073,28*76
$GPGSV,3,3,12,17,08,326,23,12,08,037,29,23,07,246,20,19,00,219,*70
$GPRMC,235217.028,A,4738.9990,N,12207.0555,W,000.0,181.1,251213,,,A*7B
$GPVTG,181.1,T,,M,000.0,N,000.0,K,A*04
$GPGGA,235218.028,4738.9990,N,12207.0555,W,1,09,1.1,36.4,M,-18.1,M,,0000*54
$GPGSA,A,3,20,25,31,11,01,14,22,12,32,,,,2.0,1.1,1.6*36
$GPGSV,3,1,12,32,67,302,43,01,54,275,39,31,54,138,40,14,42,059,44*76
$GPGSV,3,2,12,11,40,236,31,20,29,296,31,22,16,112,26,25,12,073,28*77
$GPGSV,3,3,12,17,08,326,22,12,08,037,29,23,07,246,19,19,00,219,*7B
$GPRMC,235218.028,A,4738.9990,N,12207.0555,W,000.0,181.1,251213,,,A*74
$GPVTG,181.1,T,,M,000.0,N,000.0,K,A*04
$GPGGA,235219.028,4738.9990,N,12207.0555,W,1,09,1.1,36.4,M,-18.1,M,,0000*55
$GPGSA,A,3,20,25,31,11,01,14,22,12,32,,,,2.0,1.1,1.6*36
$GPGSV,3,1,12,32,67,302,43,01,54,275,39,31,54,138,40,14,42,059,44*76
$GPGSV,3,2,12,11,40,236,31,20,29,296,31,22,16,112,27,25,12,073,28*76
$GPGSV,3,3,12,17,08,326,22,12,08,037,29,23,07,246,20,19,00,219,*71
$GPRMC,235219.028,A,4738.9990,N,12207.0555,W,000.0,181.1,251213,,,A*75
$GPVTG,181.1,T,,M,000.0,N,000.0,K,A*04
$GPGGA,235220.028,4738.9990,N,12207.0555,W,1,09,1.1,36.4,M,-18.1,M,,0000*5F
$GPGSA,A,3,20,25,31,11,01,14,22,12,32,,,,2.0,1.1,1.6*36
$GPGSV,3,1,12,32,67,302,43,01,54,275,38,31,54,138,40,14,42,059,44*77
$GPGSV,3,2,12,11,40,236,31,20,29,296,31,22,16,112,27,25,12,073,28*76
$GPGSV,3,3,12,17,08,326,22,12,08,037,28,23,07,246,20,19,00,219,*70
$GPRMC,235220.028,A,4738.9990,N,12207.0555,W,000.0,181.1,251213,,,A*7F
$GPVTG,181.1,T,,M,000.0,N,000.0,K,A*04
$GPGGA,235221.028,4738.9990,N,12207.0555,W,1,09,1.1,36.4,M,-18.1,M,,0000*5E
$GPGSA,A,3,20,25,31,11,01,14,22,12,32,,,,2.0,1.1,1.6*36
$GPGSV,3,1,12,32,67,302,43,01,54,275,38,31,54,137,40,14,42,059,44*78
$GPGSV,3,2,12,11,40,236,31,20,29,296,31,22,16,112,26,25,12,073,28*77
$GPGSV,3,3,12,17,08,326,21,12,08,037,29,23,07,246,20,19,00,219,*72
$GPRMC,235221.028,A,4738.9990,N,12207.0555,W,000.0,181.1,251213,,,A*7E
$GPVTG,181.1,T,,M,000.0,N,000.0,K,A*04
$GPGGA,235222.028,4738.9990,N,12207.0555,W,1,09,1.1,36.4,M,-18.1,M,,0000*5D
$GPGSA,A,3,20,25,31,11,01,14,22,12,32,,,,2.0,1.1,1.6*36
$GPGSV,3,1,12,32,67,302,43,01,54,275,38,31,54,137,40,14,42,059,44*78
$GPGSV,3,2,12,11,40,236,32,20,29,296,31,22,16,112,25,25,12,073,29*76
$GPGSV,3,3,12,17,08,326,21,